{
    "apprenants": [
        {
            "id": "1",
            "nom": "QUAGLIERI",
            "prenom": "Lucca",
            "ville": "Vannes",
            "coordonnees": {
                "latitude": 47.654250,
                "longitude": -2.758185
            },
            "avatar": "avatar",
            "anecdote": "Je suis la formation DWWM en alternance dans une agence web de Vannes !"
        },
        {
            "id": "2",
            "nom": "NGUYEN",
            "prenom": "Laetitia",
            "ville": "Champcevinel",
            "coordonnees": {
                "latitude": 45.2155556,
                "longitude": 0.7272222
            },
            "avatar": "avatar",
            "anecdote": null
        },
        {
            "id": "3",
            "nom": "DEFRUIT",
            "prenom": "Corentin",
            "ville": "Bruay sur l'Escaut",
            "coordonnees": {
                "latitude": 50.397495,
                "longitude": 3.536986
            },
            "avatar": "avatar",
            "anecdote": "Imbattable au bras de fer"
        },
        {
            "id": "4",
            "nom": "SAGOT",
            "prenom": "Laurence",
            "ville": "Montarnaud",
            "coordonnees": {
                "latitude": 43.6484985352,
                "longitude": 3.69839000702
            },
            "avatar": "laurence",
            "anecdote": "Chante du heavy métal et joue du piano"
        },
        {
            "id": "5",
            "nom": "PRIGENT",
            "prenom": "Aurore",
            "ville": "Saint Erblon",
            "coordonnees": {
                "latitude": 48.01996873194448,
                "longitude": -1.6517353311602163
            },
            "avatar": "aurore",
            "anecdote": "J'ai vécu environ 2 ans en Australie et j'ai voyagé pendant un et demi"
        },
        {
            "id": "6",
            "nom": "GLOAGUEN",
            "prenom": "Maxime",
            "ville": "Pont L'abbé",
            "coordonnees": {
                "latitude": 47.866834,
                "longitude": -4.222128
            },
            "avatar": "avatar",
            "anecdote": "Organise des festivals"
        },
        {
            "id": "7",
            "nom": "Lebreton",
            "prenom": "Lionel",
            "ville": "ploneour Lanvern",
            "coordonnees": {
                "latitude": 47.900002,
                "longitude": -4.28333
            },
            "avatar": "avatar",
            "anecdote": "J'adore mes mangas Animés"
        },
        {
            "id": "8",
            "nom": "ZHENG",
            "prenom": "Quentin",
            "ville": "La Courneuve",
            "coordonnees": {
                "latitude": 48.919380824417814,
                "longitude": 2.4093661836344
            },
            "avatar": "avatar",
            "anecdote": "J'aime bien la nourriture du Japon et de la Chine"
        },
        {
            "id": "9",
            "nom": "CHUONG",
            "prenom": "Heimo",
            "ville": "Nantes",
            "coordonnees": {
                "latitude": 47.178302,
                "longitude": -1.644528
            },
            "avatar": "heimo",
            "anecdote": "Champion olympique du lancer de babouche"
        },
        {
            "id": "10",
            "nom": "Tintillier",
            "prenom": "Amandine",
            "ville": "Cavalaire sur Mer",
            "coordonnees": {
                "latitude": 43.17113929931049,
                "longitude": 6.537061432904704
            },
            "avatar": "amandine",
            "anecdote": "Grande passionnée des chats et de l'astronomie, je n'ai pas peur du noir!"
        }
    ]
}